{
  "trip_id": "trip_12345",
  "status": "completed",
  "city": "New York City, NY",
  "origin": "Buffalo, NY",
  "start_date": "2025-12-20",
  "end_date": "2025-12-22",
  "days": [
    {
      "date": "2025-12-20",
      "activities": [
        {
          "time": "09:00",
          "name": "Statue of Liberty & Ellis Island",
          "type": "attraction",
          "lat": 40.6892,
          "lon": -74.0445,
          "duration_min": 180,
          "booking_required": true,
          "booking_url": "https://www.statuecitycruises.com/",
          "notes": "Book timed tickets in advance"
        },
        {
          "time": "13:00",
          "name": "Lunch at Battery Park",
          "type": "food",
          "lat": 40.7033,
          "lon": -74.0170,
          "duration_min": 60
        },
        {
          "time": "14:30",
          "name": "9/11 Memorial & Museum",
          "type": "attraction",
          "lat": 40.7115,
          "lon": -74.0134,
          "duration_min": 120,
          "booking_url": "https://www.911memorial.org/visit"
        }
      ]
    },
    {
      "date": "2025-12-21",
      "activities": [
        {
          "time": "09:30",
          "name": "Top of the Rock",
          "type": "attraction",
          "lat": 40.7587,
          "lon": -73.9787,
          "duration_min": 90,
          "booking_required": true,
          "booking_url": "https://www.topoftherocknyc.com/"
        },
        {
          "time": "12:00",
          "name": "Joe's Pizza",
          "type": "food",
          "lat": 40.7580,
          "lon": -73.9855,
          "duration_min": 45
        },
        {
          "time": "14:00",
          "name": "MoMA",
          "type": "attraction",
          "lat": 40.7614,
          "lon": -73.9776,
          "duration_min": 120,
          "booking_url": "https://www.moma.org/visit/"
        }
      ]
    },
    {
      "date": "2025-12-22",
      "activities": [
        {
          "time": "10:00",
          "name": "Brooklyn Bridge Walk",
          "type": "attraction",
          "lat": 40.7061,
          "lon": -73.9969,
          "duration_min": 45
        },
        {
          "time": "11:00",
          "name": "DUMBO",
          "type": "attraction",
          "lat": 40.7033,
          "lon": -73.9888,
          "duration_min": 60
        },
        {
          "time": "12:30",
          "name": "Grimaldi's Pizza",
          "type": "food",
          "lat": 40.7026,
          "lon": -73.9935,
          "duration_min": 60
        }
      ]
    }
  ],
  "booking_links": {
    "flights": "https://www.google.com/travel/flights?q=Flights%20to%20NYC&hl=en#flt=BUF.NYC.2025-12-20*NYC.BUF.2025-12-22",
    "hotels": "https://www.booking.com/searchresults.html?ss=New%20York%20City&checkin=2025-12-20&checkout=2025-12-22&group_adults=2"
  }
}
